{
  "id": "708b7ba1",
  "created_at": "2026-06-13T20:18:29.961Z",
  "destination": "Peggys Cove",
  "region": "South Shore",
  "start_date": "2026-07-04",
  "end_date": "2026-07-07",
  "notes": "",
  "anchor": {
    "name": "Meg Inn Peggys Cove",
    "latitude": 44.49316499595268,
    "longitude": -63.91523362
  },
  "popularity": null,
  "weather_mode": "historical_average",
  "weather_note": "Trip is beyond the 16-day forecast window. Showing typical conditions for these dates, averaged from the last 2 years.",
  "days": [
    {
      "date": "2026-07-04",
      "weather": {
        "summary": "Overcast / Overcast",
        "tmax": 19.6,
        "tmin": 13.2,
        "precip_mm": 0,
        "chance_pct": null,
        "historical": true
      },
      "morning": {
        "name": "Amos Pewter – Peggy’s Cove",
        "type": "Attraction",
        "region": "South Shore",
        "latitude": 44.492916,
        "longitude": -63.91674,
        "distance_km": 0.1,
        "maps_url": "https://www.google.com/maps/search/?api=1&query=44.492916,-63.91674",
        "reviews_url": "https://www.google.com/search?q=Amos%20Pewter%20%E2%80%93%20Peggy%E2%80%99s%20Cove%20South%20Shore%20Nova%20Scotia%20reviews"
      },
      "afternoon": {
        "name": "Peggy’s Cove Boat Tours",
        "type": "Outdoor Activities and Tours",
        "region": "South Shore",
        "latitude": 44.49277,
        "longitude": -63.9175,
        "distance_km": 0.2,
        "maps_url": "https://www.google.com/maps/search/?api=1&query=44.49277,-63.9175",
        "reviews_url": "https://www.google.com/search?q=Peggy%E2%80%99s%20Cove%20Boat%20Tours%20South%20Shore%20Nova%20Scotia%20reviews"
      },
      "dinner": {
        "name": "Hunky Dory",
        "type": "Eat & Drink",
        "region": "South Shore",
        "latitude": 44.49325349122717,
        "longitude": -63.91477257,
        "distance_km": 0,
        "maps_url": "https://www.google.com/maps/search/?api=1&query=44.49325349122717,-63.91477257",
        "reviews_url": "https://www.google.com/search?q=Hunky%20Dory%20South%20Shore%20Nova%20Scotia%20reviews"
      }
    },
    {
      "date": "2026-07-05",
      "weather": {
        "summary": "Light drizzle / Light rain",
        "tmax": 18.6,
        "tmin": 13.3,
        "precip_mm": 3.7,
        "chance_pct": null,
        "historical": true
      },
      "morning": {
        "name": "Swissair Memorial Site – Peggy’s Cove",
        "type": "Attraction",
        "region": "South Shore",
        "latitude": 44.506708,
        "longitude": -63.93126,
        "distance_km": 2,
        "maps_url": "https://www.google.com/maps/search/?api=1&query=44.506708,-63.93126",
        "reviews_url": "https://www.google.com/search?q=Swissair%20Memorial%20Site%20%E2%80%93%20Peggy%E2%80%99s%20Cove%20South%20Shore%20Nova%20Scotia%20reviews"
      },
      "afternoon": {
        "name": "Neil Depew Gallery",
        "type": "Attraction",
        "region": "South Shore",
        "latitude": 44.49338,
        "longitude": -63.91522,
        "distance_km": 0,
        "maps_url": "https://www.google.com/maps/search/?api=1&query=44.49338,-63.91522",
        "reviews_url": "https://www.google.com/search?q=Neil%20Depew%20Gallery%20South%20Shore%20Nova%20Scotia%20reviews"
      },
      "dinner": {
        "name": "Margaret’s Café",
        "type": "Eat & Drink",
        "region": "South Shore",
        "latitude": 44.492964337901974,
        "longitude": -63.9147599,
        "distance_km": 0,
        "maps_url": "https://www.google.com/maps/search/?api=1&query=44.492964337901974,-63.9147599",
        "reviews_url": "https://www.google.com/search?q=Margaret%E2%80%99s%20Caf%C3%A9%20South%20Shore%20Nova%20Scotia%20reviews"
      }
    },
    {
      "date": "2026-07-06",
      "weather": {
        "summary": "Overcast / Light rain",
        "tmax": 18,
        "tmin": 14.6,
        "precip_mm": 3.5,
        "chance_pct": null,
        "historical": true
      },
      "morning": {
        "name": "deGarthe Gallery",
        "type": "Attraction",
        "region": "South Shore",
        "latitude": 44.493884,
        "longitude": -63.91407,
        "distance_km": 0.1,
        "maps_url": "https://www.google.com/maps/search/?api=1&query=44.493884,-63.91407",
        "reviews_url": "https://www.google.com/search?q=deGarthe%20Gallery%20South%20Shore%20Nova%20Scotia%20reviews"
      },
      "afternoon": {
        "name": "Bayswater Beach Provincial Park",
        "type": "Outdoor Activities and Tours",
        "region": "South Shore",
        "latitude": 44.501817,
        "longitude": -64.067217,
        "distance_km": 12.1,
        "maps_url": "https://www.google.com/maps/search/?api=1&query=44.501817,-64.067217",
        "reviews_url": "https://www.google.com/search?q=Bayswater%20Beach%20Provincial%20Park%20South%20Shore%20Nova%20Scotia%20reviews"
      },
      "dinner": {
        "name": "Sou’Wester Gift & Restaurant",
        "type": "Eat & Drink",
        "region": "South Shore",
        "latitude": 44.492385,
        "longitude": -63.917369,
        "distance_km": 0.2,
        "maps_url": "https://www.google.com/maps/search/?api=1&query=44.492385,-63.917369",
        "reviews_url": "https://www.google.com/search?q=Sou%E2%80%99Wester%20Gift%20%26%20Restaurant%20South%20Shore%20Nova%20Scotia%20reviews"
      }
    },
    {
      "date": "2026-07-07",
      "weather": {
        "summary": "Rain / Drizzle",
        "tmax": 18.9,
        "tmin": 15.5,
        "precip_mm": 5.1,
        "chance_pct": null,
        "historical": true
      },
      "morning": {
        "name": "Spindrift Gallery",
        "type": "Attraction",
        "region": "South Shore",
        "latitude": 44.49302377630847,
        "longitude": -63.91440288,
        "distance_km": 0.1,
        "maps_url": "https://www.google.com/maps/search/?api=1&query=44.49302377630847,-63.91440288",
        "reviews_url": "https://www.google.com/search?q=Spindrift%20Gallery%20South%20Shore%20Nova%20Scotia%20reviews"
      },
      "afternoon": {
        "name": "The Schoolhouse",
        "type": "Attraction",
        "region": "South Shore",
        "latitude": 44.49298960424538,
        "longitude": -63.91428673,
        "distance_km": 0.1,
        "maps_url": "https://www.google.com/maps/search/?api=1&query=44.49298960424538,-63.91428673",
        "reviews_url": "https://www.google.com/search?q=The%20Schoolhouse%20South%20Shore%20Nova%20Scotia%20reviews"
      },
      "dinner": {
        "name": "Café l’Acadie",
        "type": "Eat & Drink",
        "region": "South Shore",
        "latitude": 44.510423,
        "longitude": -63.938005,
        "distance_km": 2.6,
        "maps_url": "https://www.google.com/maps/search/?api=1&query=44.510423,-63.938005",
        "reviews_url": "https://www.google.com/search?q=Caf%C3%A9%20l%E2%80%99Acadie%20South%20Shore%20Nova%20Scotia%20reviews"
      }
    }
  ],
  "attractions": [
    {
      "name": "Amos Pewter – Peggy’s Cove",
      "type": "Attraction",
      "region": "South Shore",
      "latitude": 44.492916,
      "longitude": -63.91674,
      "distance_km": 0.1,
      "maps_url": "https://www.google.com/maps/search/?api=1&query=44.492916,-63.91674",
      "reviews_url": "https://www.google.com/search?q=Amos%20Pewter%20%E2%80%93%20Peggy%E2%80%99s%20Cove%20South%20Shore%20Nova%20Scotia%20reviews"
    },
    {
      "name": "Peggy’s Cove Lighthouse and Village",
      "type": "Attraction",
      "region": "South Shore",
      "latitude": 44.49745,
      "longitude": -63.91507,
      "distance_km": 0.5,
      "maps_url": "https://www.google.com/maps/search/?api=1&query=44.49745,-63.91507",
      "reviews_url": "https://www.google.com/search?q=Peggy%E2%80%99s%20Cove%20Lighthouse%20and%20Village%20South%20Shore%20Nova%20Scotia%20reviews"
    },
    {
      "name": "Swissair Memorial Site – Peggy’s Cove",
      "type": "Attraction",
      "region": "South Shore",
      "latitude": 44.506708,
      "longitude": -63.93126,
      "distance_km": 2,
      "maps_url": "https://www.google.com/maps/search/?api=1&query=44.506708,-63.93126",
      "reviews_url": "https://www.google.com/search?q=Swissair%20Memorial%20Site%20%E2%80%93%20Peggy%E2%80%99s%20Cove%20South%20Shore%20Nova%20Scotia%20reviews"
    },
    {
      "name": "Neil Depew Gallery",
      "type": "Attraction",
      "region": "South Shore",
      "latitude": 44.49338,
      "longitude": -63.91522,
      "distance_km": 0,
      "maps_url": "https://www.google.com/maps/search/?api=1&query=44.49338,-63.91522",
      "reviews_url": "https://www.google.com/search?q=Neil%20Depew%20Gallery%20South%20Shore%20Nova%20Scotia%20reviews"
    },
    {
      "name": "deGarthe Gallery",
      "type": "Attraction",
      "region": "South Shore",
      "latitude": 44.493884,
      "longitude": -63.91407,
      "distance_km": 0.1,
      "maps_url": "https://www.google.com/maps/search/?api=1&query=44.493884,-63.91407",
      "reviews_url": "https://www.google.com/search?q=deGarthe%20Gallery%20South%20Shore%20Nova%20Scotia%20reviews"
    },
    {
      "name": "Hags on the Hill",
      "type": "Attraction",
      "region": "South Shore",
      "latitude": 44.493459,
      "longitude": -63.916309,
      "distance_km": 0.1,
      "maps_url": "https://www.google.com/maps/search/?api=1&query=44.493459,-63.916309",
      "reviews_url": "https://www.google.com/search?q=Hags%20on%20the%20Hill%20South%20Shore%20Nova%20Scotia%20reviews"
    },
    {
      "name": "Spindrift Gallery",
      "type": "Attraction",
      "region": "South Shore",
      "latitude": 44.49302377630847,
      "longitude": -63.91440288,
      "distance_km": 0.1,
      "maps_url": "https://www.google.com/maps/search/?api=1&query=44.49302377630847,-63.91440288",
      "reviews_url": "https://www.google.com/search?q=Spindrift%20Gallery%20South%20Shore%20Nova%20Scotia%20reviews"
    },
    {
      "name": "The Schoolhouse",
      "type": "Attraction",
      "region": "South Shore",
      "latitude": 44.49298960424538,
      "longitude": -63.91428673,
      "distance_km": 0.1,
      "maps_url": "https://www.google.com/maps/search/?api=1&query=44.49298960424538,-63.91428673",
      "reviews_url": "https://www.google.com/search?q=The%20Schoolhouse%20South%20Shore%20Nova%20Scotia%20reviews"
    },
    {
      "name": "William E. deGarthe Memorial Monument",
      "type": "Attraction",
      "region": "South Shore",
      "latitude": 44.493971,
      "longitude": -63.913827,
      "distance_km": 0.1,
      "maps_url": "https://www.google.com/maps/search/?api=1&query=44.493971,-63.913827",
      "reviews_url": "https://www.google.com/search?q=William%20E.%20deGarthe%20Memorial%20Monument%20South%20Shore%20Nova%20Scotia%20reviews"
    },
    {
      "name": "Holy Mackerel",
      "type": "Attraction",
      "region": "South Shore",
      "latitude": 44.493168,
      "longitude": -63.917513,
      "distance_km": 0.2,
      "maps_url": "https://www.google.com/maps/search/?api=1&query=44.493168,-63.917513",
      "reviews_url": "https://www.google.com/search?q=Holy%20Mackerel%20South%20Shore%20Nova%20Scotia%20reviews"
    },
    {
      "name": "HRM Crow’s Nest Antiques",
      "type": "Attraction",
      "region": "South Shore",
      "latitude": 44.517113,
      "longitude": -63.936405,
      "distance_km": 3.1,
      "maps_url": "https://www.google.com/maps/search/?api=1&query=44.517113,-63.936405",
      "reviews_url": "https://www.google.com/search?q=HRM%20Crow%E2%80%99s%20Nest%20Antiques%20South%20Shore%20Nova%20Scotia%20reviews"
    },
    {
      "name": "The Hydrothermal Spa at Oceanstone Resort",
      "type": "Attraction",
      "region": "South Shore",
      "latitude": 44.52094,
      "longitude": -63.93658,
      "distance_km": 3.5,
      "maps_url": "https://www.google.com/maps/search/?api=1&query=44.52094,-63.93658",
      "reviews_url": "https://www.google.com/search?q=The%20Hydrothermal%20Spa%20at%20Oceanstone%20Resort%20South%20Shore%20Nova%20Scotia%20reviews"
    }
  ],
  "activities": [
    {
      "name": "Peggy’s Cove Boat Tours",
      "type": "Outdoor Activities and Tours",
      "region": "South Shore",
      "latitude": 44.49277,
      "longitude": -63.9175,
      "distance_km": 0.2,
      "maps_url": "https://www.google.com/maps/search/?api=1&query=44.49277,-63.9175",
      "reviews_url": "https://www.google.com/search?q=Peggy%E2%80%99s%20Cove%20Boat%20Tours%20South%20Shore%20Nova%20Scotia%20reviews"
    },
    {
      "name": "Granite Springs Golf Club",
      "type": "Outdoor Activities and Tours",
      "region": "South Shore",
      "latitude": 44.53068,
      "longitude": -63.803049,
      "distance_km": 9.8,
      "maps_url": "https://www.google.com/maps/search/?api=1&query=44.53068,-63.803049",
      "reviews_url": "https://www.google.com/search?q=Granite%20Springs%20Golf%20Club%20South%20Shore%20Nova%20Scotia%20reviews"
    },
    {
      "name": "Bayswater Beach Provincial Park",
      "type": "Outdoor Activities and Tours",
      "region": "South Shore",
      "latitude": 44.501817,
      "longitude": -64.067217,
      "distance_km": 12.1,
      "maps_url": "https://www.google.com/maps/search/?api=1&query=44.501817,-64.067217",
      "reviews_url": "https://www.google.com/search?q=Bayswater%20Beach%20Provincial%20Park%20South%20Shore%20Nova%20Scotia%20reviews"
    },
    {
      "name": "Aberdeen Bus Tours & Charters",
      "type": "Outdoor Activities and Tours",
      "region": "South Shore",
      "latitude": 44.546016,
      "longitude": -63.737091,
      "distance_km": 15.3,
      "maps_url": "https://www.google.com/maps/search/?api=1&query=44.546016,-63.737091",
      "reviews_url": "https://www.google.com/search?q=Aberdeen%20Bus%20Tours%20%26%20Charters%20South%20Shore%20Nova%20Scotia%20reviews"
    },
    {
      "name": "East Coast Outfitters",
      "type": "Outdoor Activities and Tours",
      "region": "Halifax Metro, South Shore",
      "latitude": 44.457238,
      "longitude": -63.724922,
      "distance_km": 15.6,
      "maps_url": "https://www.google.com/maps/search/?api=1&query=44.457238,-63.724922",
      "reviews_url": "https://www.google.com/search?q=East%20Coast%20Outfitters%20Halifax%20Metro%2C%20South%20Shore%20Nova%20Scotia%20reviews"
    },
    {
      "name": "Indian Lake Golf Course",
      "type": "Outdoor Activities and Tours",
      "region": "South Shore",
      "latitude": 44.567269,
      "longitude": -63.719502,
      "distance_km": 17.6,
      "maps_url": "https://www.google.com/maps/search/?api=1&query=44.567269,-63.719502",
      "reviews_url": "https://www.google.com/search?q=Indian%20Lake%20Golf%20Course%20South%20Shore%20Nova%20Scotia%20reviews"
    },
    {
      "name": "Queensland Beach Provincial Park",
      "type": "Outdoor Activities and Tours",
      "region": "South Shore",
      "latitude": 44.63545,
      "longitude": -64.025883,
      "distance_km": 18.1,
      "maps_url": "https://www.google.com/maps/search/?api=1&query=44.63545,-64.025883",
      "reviews_url": "https://www.google.com/search?q=Queensland%20Beach%20Provincial%20Park%20South%20Shore%20Nova%20Scotia%20reviews"
    },
    {
      "name": "Shining Waters Marina & Boatyard",
      "type": "Outdoor Activities and Tours",
      "region": "South Shore",
      "latitude": 44.656758,
      "longitude": -63.911878,
      "distance_km": 18.2,
      "maps_url": "https://www.google.com/maps/search/?api=1&query=44.656758,-63.911878",
      "reviews_url": "https://www.google.com/search?q=Shining%20Waters%20Marina%20%26%20Boatyard%20South%20Shore%20Nova%20Scotia%20reviews"
    }
  ],
  "restaurants": [
    {
      "name": "Hunky Dory",
      "type": "Eat & Drink",
      "region": "South Shore",
      "latitude": 44.49325349122717,
      "longitude": -63.91477257,
      "distance_km": 0,
      "maps_url": "https://www.google.com/maps/search/?api=1&query=44.49325349122717,-63.91477257",
      "reviews_url": "https://www.google.com/search?q=Hunky%20Dory%20South%20Shore%20Nova%20Scotia%20reviews"
    },
    {
      "name": "Margaret’s Café",
      "type": "Eat & Drink",
      "region": "South Shore",
      "latitude": 44.492964337901974,
      "longitude": -63.9147599,
      "distance_km": 0,
      "maps_url": "https://www.google.com/maps/search/?api=1&query=44.492964337901974,-63.9147599",
      "reviews_url": "https://www.google.com/search?q=Margaret%E2%80%99s%20Caf%C3%A9%20South%20Shore%20Nova%20Scotia%20reviews"
    },
    {
      "name": "Sou’Wester Gift & Restaurant",
      "type": "Eat & Drink",
      "region": "South Shore",
      "latitude": 44.492385,
      "longitude": -63.917369,
      "distance_km": 0.2,
      "maps_url": "https://www.google.com/maps/search/?api=1&query=44.492385,-63.917369",
      "reviews_url": "https://www.google.com/search?q=Sou%E2%80%99Wester%20Gift%20%26%20Restaurant%20South%20Shore%20Nova%20Scotia%20reviews"
    },
    {
      "name": "Café l’Acadie",
      "type": "Eat & Drink",
      "region": "South Shore",
      "latitude": 44.510423,
      "longitude": -63.938005,
      "distance_km": 2.6,
      "maps_url": "https://www.google.com/maps/search/?api=1&query=44.510423,-63.938005",
      "reviews_url": "https://www.google.com/search?q=Caf%C3%A9%20l%E2%80%99Acadie%20South%20Shore%20Nova%20Scotia%20reviews"
    },
    {
      "name": "rhubarb restaurant",
      "type": "Eat & Drink",
      "region": "South Shore",
      "latitude": 44.520793,
      "longitude": -63.936382,
      "distance_km": 3.5,
      "maps_url": "https://www.google.com/maps/search/?api=1&query=44.520793,-63.936382",
      "reviews_url": "https://www.google.com/search?q=rhubarb%20restaurant%20South%20Shore%20Nova%20Scotia%20reviews"
    },
    {
      "name": "Black Harbour Distillers",
      "type": "Eat & Drink",
      "region": "South Shore",
      "latitude": 44.620434,
      "longitude": -64.061345,
      "distance_km": 18.3,
      "maps_url": "https://www.google.com/maps/search/?api=1&query=44.620434,-64.061345",
      "reviews_url": "https://www.google.com/search?q=Black%20Harbour%20Distillers%20South%20Shore%20Nova%20Scotia%20reviews"
    },
    {
      "name": "Saltbox Shining Waters",
      "type": "Eat & Drink",
      "region": "South Shore",
      "latitude": 44.657767,
      "longitude": -63.915365,
      "distance_km": 18.3,
      "maps_url": "https://www.google.com/maps/search/?api=1&query=44.657767,-63.915365",
      "reviews_url": "https://www.google.com/search?q=Saltbox%20Shining%20Waters%20South%20Shore%20Nova%20Scotia%20reviews"
    },
    {
      "name": "Shore Club Lobster Suppers",
      "type": "Eat & Drink",
      "region": "South Shore",
      "latitude": 44.633875,
      "longitude": -64.057097,
      "distance_km": 19.3,
      "maps_url": "https://www.google.com/maps/search/?api=1&query=44.633875,-64.057097",
      "reviews_url": "https://www.google.com/search?q=Shore%20Club%20Lobster%20Suppers%20South%20Shore%20Nova%20Scotia%20reviews"
    }
  ],
  "hotels": [
    {
      "name": "Meg Inn Peggys Cove",
      "type": "Accommodation",
      "region": "South Shore",
      "latitude": 44.49316499595268,
      "longitude": -63.91523362,
      "distance_km": 0,
      "maps_url": "https://www.google.com/maps/search/?api=1&query=44.49316499595268,-63.91523362",
      "reviews_url": "https://www.google.com/search?q=Meg%20Inn%20Peggys%20Cove%20South%20Shore%20Nova%20Scotia%20reviews"
    },
    {
      "name": "Cozy Cove Studio",
      "type": "Accommodation",
      "region": "South Shore",
      "latitude": 44.492734,
      "longitude": -63.916625,
      "distance_km": 0.1,
      "maps_url": "https://www.google.com/maps/search/?api=1&query=44.492734,-63.916625",
      "reviews_url": "https://www.google.com/search?q=Cozy%20Cove%20Studio%20South%20Shore%20Nova%20Scotia%20reviews"
    },
    {
      "name": "Clifty Cove Motel",
      "type": "Accommodation",
      "region": "South Shore",
      "latitude": 44.51087,
      "longitude": -63.9363,
      "distance_km": 2.6,
      "maps_url": "https://www.google.com/maps/search/?api=1&query=44.51087,-63.9363",
      "reviews_url": "https://www.google.com/search?q=Clifty%20Cove%20Motel%20South%20Shore%20Nova%20Scotia%20reviews"
    },
    {
      "name": "Lighthouse Lane Cottages",
      "type": "Accommodation",
      "region": "South Shore",
      "latitude": 44.511374,
      "longitude": -63.939266,
      "distance_km": 2.8,
      "maps_url": "https://www.google.com/maps/search/?api=1&query=44.511374,-63.939266",
      "reviews_url": "https://www.google.com/search?q=Lighthouse%20Lane%20Cottages%20South%20Shore%20Nova%20Scotia%20reviews"
    },
    {
      "name": "Oceanstone Resort",
      "type": "Accommodation",
      "region": "South Shore",
      "latitude": 44.52153,
      "longitude": -63.93622,
      "distance_km": 3.6,
      "maps_url": "https://www.google.com/maps/search/?api=1&query=44.52153,-63.93622",
      "reviews_url": "https://www.google.com/search?q=Oceanstone%20Resort%20South%20Shore%20Nova%20Scotia%20reviews"
    },
    {
      "name": "Nova Glamping",
      "type": "Accommodation",
      "region": "South Shore",
      "latitude": 44.485324,
      "longitude": -63.870441,
      "distance_km": 3.7,
      "maps_url": "https://www.google.com/maps/search/?api=1&query=44.485324,-63.870441",
      "reviews_url": "https://www.google.com/search?q=Nova%20Glamping%20South%20Shore%20Nova%20Scotia%20reviews"
    },
    {
      "name": "Sunset Bank Cottage",
      "type": "Accommodation",
      "region": "South Shore",
      "latitude": 44.557475,
      "longitude": -63.940815,
      "distance_km": 7.4,
      "maps_url": "https://www.google.com/maps/search/?api=1&query=44.557475,-63.940815",
      "reviews_url": "https://www.google.com/search?q=Sunset%20Bank%20Cottage%20South%20Shore%20Nova%20Scotia%20reviews"
    },
    {
      "name": "Sand Castle Tourist Service + Bed & Breakfast",
      "type": "Accommodation",
      "region": "South Shore",
      "latitude": 44.503579,
      "longitude": -63.801578,
      "distance_km": 9.1,
      "maps_url": "https://www.google.com/maps/search/?api=1&query=44.503579,-63.801578",
      "reviews_url": "https://www.google.com/search?q=Sand%20Castle%20Tourist%20Service%20%2B%20Bed%20%26%20Breakfast%20South%20Shore%20Nova%20Scotia%20reviews"
    }
  ],
  "season": {
    "peak_months": [
      "August",
      "July",
      "September"
    ],
    "shoulder_months": [
      "June",
      "October",
      "May"
    ],
    "trip_month": "July",
    "trip_month_rank": 2
  }
}